{
  "status": 200,
  "data": [
    {
      "latitude": "31.297857",
      "longitude": "75.5788341",
      "location_id": "267",
      "language_id": "1",
      "location_name": "Test",
      "alert1_distance": "",
      "alert1_sound_file_url": null,
      "alert2_distance": "",
      "alert2_sound_file_url": null
    },
    {
      "latitude": "12.22222",
      "longitude": "12.000000",
      "location_id": "266",
      "language_id": "1",
      "location_name": "Ravi test",
      "alert1_distance": "",
      "alert1_sound_file_url": null,
      "alert2_distance": "",
      "alert2_sound_file_url": null
    },
    {
      "latitude": "31.6206",
      "longitude": "74.8801",
      "location_id": "265",
      "language_id": "1",
      "location_name": "Makhan Fish and Chicken Corner",
      "alert1_distance": "",
      "alert1_sound_file_url": null,
      "alert2_distance": "",
      "alert2_sound_file_url": null
    },
    {
      "latitude": "31.6206",
      "longitude": "74.8801",
      "location_id": "264",
      "language_id": "1",
      "location_name": "Bubby Fish and Chicken Corner",
      "alert1_distance": "",
      "alert1_sound_file_url": null,
      "alert2_distance": "",
      "alert2_sound_file_url": null
    },
    {
      "latitude": "31.4539",
      "longitude": "74.9268",
      "location_id": "263",
      "language_id": "1",
      "location_name": "Tarn Taran Sarovar",
      "alert1_distance": "",
      "alert1_sound_file_url": null,
      "alert2_distance": "",
      "alert2_sound_file_url": null
    },
    {
      "latitude": "31.5108",
      "longitude": "74.6935",
      "location_id": "262",
      "language_id": "1",
      "location_name": "Jadiala Guru Thatera",
      "alert1_distance": "",
      "alert1_sound_file_url": null,
      "alert2_distance": "",
      "alert2_sound_file_url": null
    },
    {
      "latitude": "31.4539",
      "longitude": "74.9268",
      "location_id": "261",
      "language_id": "1",
      "location_name": "Tarn Taran Darbar Sahib",
      "alert1_distance": "",
      "alert1_sound_file_url": null,
      "alert2_distance": "",
      "alert2_sound_file_url": null
    },
    {
      "latitude": "31.4236",
      "longitude": "75.0991",
      "location_id": "260",
      "language_id": "1",
      "location_name": "Building of Gates",
      "alert1_distance": "",
      "alert1_sound_file_url": null,
      "alert2_distance": "",
      "alert2_sound_file_url": null
    },
    {
      "latitude": "31.3660",
      "longitude": "75.1449",
      "location_id": "259",
      "language_id": "1",
      "location_name": "Angithia Sahib Sri Darbar Sahib Gurudwara",
      "alert1_distance": "",
      "alert1_sound_file_url": null,
      "alert2_distance": "",
      "alert2_sound_file_url": null
    },
    {
      "latitude": "31.3660",
      "longitude": "75.1449",
      "location_id": "258",
      "language_id": "1",
      "location_name": "Guru Arjan Dev Ji Janam Asthan",
      "alert1_distance": "",
      "alert1_sound_file_url": null,
      "alert2_distance": "",
      "alert2_sound_file_url": null
    },
    {
      "latitude": "31.6296",
      "longitude": "74.8752",
      "location_id": "257",
      "language_id": "1",
      "location_name": "Victoria Hospital",
      "alert1_distance": "",
      "alert1_sound_file_url": null,
      "alert2_distance": "",
      "alert2_sound_file_url": null
    },
    {
      "latitude": "31.6296",
      "longitude": "74.8752",
      "location_id": "256",
      "language_id": "1",
      "location_name": "Catholic Church",
      "alert1_distance": "",
      "alert1_sound_file_url": null,
      "alert2_distance": "",
      "alert2_sound_file_url": null
    },
    {
      "latitude": "31.6296",
      "longitude": "74.8752",
      "location_id": "255",
      "language_id": "1",
      "location_name": "Anglican Church",
      "alert1_distance": "",
      "alert1_sound_file_url": null,
      "alert2_distance": "",
      "alert2_sound_file_url": null
    },
    {
      "latitude": "31.6769",
      "longitude": "74.7527",
      "location_id": "254",
      "language_id": "1",
      "location_name": "Valmiki Kutiya",
      "alert1_distance": "",
      "alert1_sound_file_url": null,
      "alert2_distance": "",
      "alert2_sound_file_url": null
    },
    {
      "latitude": "31.6769",
      "longitude": "74.7527",
      "location_id": "253",
      "language_id": "1",
      "location_name": "Mata Sita Kutiya",
      "alert1_distance": "",
      "alert1_sound_file_url": null,
      "alert2_distance": "",
      "alert2_sound_file_url": null
    },
    {
      "latitude": "31.6206",
      "longitude": "74.8801",
      "location_id": "252",
      "language_id": "1",
      "location_name": "Mata Laungawali",
      "alert1_distance": "",
      "alert1_sound_file_url": null,
      "alert2_distance": "",
      "alert2_sound_file_url": null
    },
    {
      "latitude": "31.6206",
      "longitude": "74.8801",
      "location_id": "251",
      "language_id": "1",
      "location_name": "Mandir Mata Fooladevi",
      "alert1_distance": "",
      "alert1_sound_file_url": null,
      "alert2_distance": "",
      "alert2_sound_file_url": null
    },
    {
      "latitude": "31.6206",
      "longitude": "74.8801",
      "location_id": "250",
      "language_id": "1",
      "location_name": "Bijli Pahilwan Mandir",
      "alert1_distance": "",
      "alert1_sound_file_url": null,
      "alert2_distance": "",
      "alert2_sound_file_url": null
    },
    {
      "latitude": "31.6206",
      "longitude": "74.8801",
      "location_id": "249",
      "language_id": "1",
      "location_name": "Town Hall",
      "alert1_distance": "",
      "alert1_sound_file_url": null,
      "alert2_distance": "",
      "alert2_sound_file_url": null
    },
    {
      "latitude": "31.6206",
      "longitude": "74.8801",
      "location_id": "248",
      "language_id": "1",
      "location_name": "Samadhi",
      "alert1_distance": "",
      "alert1_sound_file_url": null,
      "alert2_distance": "",
      "alert2_sound_file_url": null
    },
    {
      "latitude": "31.3305",
      "longitude": "75.5760",
      "location_id": "247",
      "language_id": "1",
      "location_name": "Shaheed Baba Deep Singh Ji Gurudwara",
      "alert1_distance": "",
      "alert1_sound_file_url": null,
      "alert2_distance": "",
      "alert2_sound_file_url": null
    },
    {
      "latitude": "31.633980",
      "longitude": "74.872261",
      "location_id": "246",
      "language_id": "1",
      "location_name": "The Hanging Gurudwara",
      "alert1_distance": "",
      "alert1_sound_file_url": null,
      "alert2_distance": "",
      "alert2_sound_file_url": null
    },
    {
      "latitude": "31.633980",
      "longitude": "74.872261",
      "location_id": "245",
      "language_id": "1",
      "location_name": "Old DC Office",
      "alert1_distance": "",
      "alert1_sound_file_url": null,
      "alert2_distance": "",
      "alert2_sound_file_url": null
    },
    {
      "latitude": "31.6340",
      "longitude": "74.8723",
      "location_id": "244",
      "language_id": "1",
      "location_name": "Heritage walk",
      "alert1_distance": "1000",
      "alert1_sound_file_url": null,
      "alert2_distance": "800",
      "alert2_sound_file_url": null
    },
    {
      "latitude": "31.6048",
      "longitude": "74.5741",
      "location_id": "243",
      "language_id": "2",
      "location_name": "ਅਟਾਰੀ ਵਾਘਾ ਬਾਰਡਰ",
      "alert1_distance": "",
      "alert1_sound_file_url": null,
      "alert2_distance": "",
      "alert2_sound_file_url": null
    },
    {
      "latitude": "31.619653",
      "longitude": "74.877331",
      "location_id": "242",
      "language_id": "2",
      "location_name": "ਦੁੱਖ ਭੰਜਨੀ ਬੇਰ ਸਾਹਿਬ",
      "alert1_distance": "900",
      "alert1_sound_file_url": null,
      "alert2_distance": "500",
      "alert2_sound_file_url": null
    },
    {
      "latitude": "31.6228",
      "longitude": "74.8733",
      "location_id": "241",
      "language_id": "2",
      "location_name": "ਗੁਰੂ ਕੇ ਮਹਿਲ",
      "alert1_distance": "1200",
      "alert1_sound_file_url": null,
      "alert2_distance": "700",
      "alert2_sound_file_url": null
    },
    {
      "latitude": "31.6183",
      "longitude": "74.8760",
      "location_id": "240",
      "language_id": "2",
      "location_name": "ਗੁਰੂਦਵਾਰਾ ਮਾਤਾ ਕੌਲਾਂ",
      "alert1_distance": "",
      "alert1_sound_file_url": null,
      "alert2_distance": "",
      "alert2_sound_file_url": null
    },
    {
      "latitude": "30.726274",
      "longitude": "76.720169",
      "location_id": "231",
      "language_id": "1",
      "location_name": "Adarsh meat shop",
      "alert1_distance": "500",
      "alert1_sound_file_url": "soundfile3.mp3",
      "alert2_distance": "200",
      "alert2_sound_file_url": "https://dreambsys.in/codeigniter/hriday/assets/static/locations/soundfiles/soundfile2.mp3"
    },
    {
      "latitude": "31.6276452",
      "longitude": "74.8685346",
      "location_id": "230",
      "language_id": "1",
      "location_name": "Pal da dhaba",
      "alert1_distance": "",
      "alert1_sound_file_url": null,
      "alert2_distance": "",
      "alert2_sound_file_url": null
    },
    {
      "latitude": "31.6425588",
      "longitude": "74.8740942",
      "location_id": "229",
      "language_id": "1",
      "location_name": "Surjit Food Palaza",
      "alert1_distance": "",
      "alert1_sound_file_url": null,
      "alert2_distance": "",
      "alert2_sound_file_url": null
    },
    {
      "latitude": "31.6206",
      "longitude": "74.7293",
      "location_id": "228",
      "language_id": "1",
      "location_name": "Friends Dhaba",
      "alert1_distance": "",
      "alert1_sound_file_url": null,
      "alert2_distance": "",
      "alert2_sound_file_url": null
    },
    {
      "latitude": "74.8842",
      "longitude": "31.6425",
      "location_id": "227",
      "language_id": "1",
      "location_name": "Beera chicken",
      "alert1_distance": "",
      "alert1_sound_file_url": null,
      "alert2_distance": "",
      "alert2_sound_file_url": null
    },
    {
      "latitude": "31.6294",
      "longitude": "74.8738",
      "location_id": "226",
      "language_id": "1",
      "location_name": "Giani Tea Stall",
      "alert1_distance": "",
      "alert1_sound_file_url": null,
      "alert2_distance": "",
      "alert2_sound_file_url": null
    },
    {
      "latitude": "31.6294",
      "longitude": "74.8738",
      "location_id": "225",
      "language_id": "1",
      "location_name": "Giani Di lassi",
      "alert1_distance": "",
      "alert1_sound_file_url": null,
      "alert2_distance": "",
      "alert2_sound_file_url": null
    },
    {
      "latitude": "31.6510005",
      "longitude": "74.8647342",
      "location_id": "224",
      "language_id": "1",
      "location_name": "Darshan Lal Kulchewala",
      "alert1_distance": "",
      "alert1_sound_file_url": null,
      "alert2_distance": "",
      "alert2_sound_file_url": null
    },
    {
      "latitude": "31.6510005",
      "longitude": "74.8647342",
      "location_id": "223",
      "language_id": "1",
      "location_name": "Harbans Lal Kulchewala",
      "alert1_distance": "",
      "alert1_sound_file_url": null,
      "alert2_distance": "",
      "alert2_sound_file_url": null
    },
    {
      "latitude": "31.6250464",
      "longitude": "74.8727447",
      "location_id": "222",
      "language_id": "1",
      "location_name": "Tara Chand Paneer Bhurji",
      "alert1_distance": "",
      "alert1_sound_file_url": null,
      "alert2_distance": "",
      "alert2_sound_file_url": null
    },
    {
      "latitude": "31.6355",
      "longitude": "74.8746",
      "location_id": "221",
      "language_id": "1",
      "location_name": "Sabri Bhatura",
      "alert1_distance": "",
      "alert1_sound_file_url": null,
      "alert2_distance": "",
      "alert2_sound_file_url": null
    },
    {
      "latitude": "31.6377",
      "longitude": "74.8614",
      "location_id": "220",
      "language_id": "1",
      "location_name": "Rajasthani Chat Bhandar",
      "alert1_distance": "",
      "alert1_sound_file_url": null,
      "alert2_distance": "",
      "alert2_sound_file_url": null
    },
    {
      "latitude": "31.5723263",
      "longitude": "75.0172236",
      "location_id": "219",
      "language_id": "1",
      "location_name": "Haveli",
      "alert1_distance": "",
      "alert1_sound_file_url": null,
      "alert2_distance": "",
      "alert2_sound_file_url": null
    },
    {
      "latitude": "31.6242351",
      "longitude": "74.8708094",
      "location_id": "218",
      "language_id": "1",
      "location_name": "Kesar da Dhaba",
      "alert1_distance": "",
      "alert1_sound_file_url": null,
      "alert2_distance": "",
      "alert2_sound_file_url": null
    },
    {
      "latitude": "31.6227",
      "longitude": "74.8796",
      "location_id": "217",
      "language_id": "1",
      "location_name": "Brother's Amritsari Dhaba",
      "alert1_distance": "",
      "alert1_sound_file_url": null,
      "alert2_distance": "",
      "alert2_sound_file_url": null
    },
    {
      "latitude": "31.6454",
      "longitude": "74.8780",
      "location_id": "216",
      "language_id": "1",
      "location_name": "Sanjha Chulha",
      "alert1_distance": "",
      "alert1_sound_file_url": null,
      "alert2_distance": "",
      "alert2_sound_file_url": null
    },
    {
      "latitude": "31.282930102125775",
      "longitude": "75.57873858452501",
      "location_id": "215",
      "language_id": "1",
      "location_name": "Test",
      "alert1_distance": null,
      "alert1_sound_file_url": null,
      "alert2_distance": null,
      "alert2_sound_file_url": null
    },
    {
      "latitude": "31.283355520325284",
      "longitude": "75.57688236236572",
      "location_id": "214",
      "language_id": "1",
      "location_name": "Canvas Events",
      "alert1_distance": null,
      "alert1_sound_file_url": null,
      "alert2_distance": null,
      "alert2_sound_file_url": null
    },
    {
      "latitude": "31.6450",
      "longitude": "74.8845",
      "location_id": "213",
      "language_id": "1",
      "location_name": "Ruby Restaurant",
      "alert1_distance": "",
      "alert1_sound_file_url": null,
      "alert2_distance": "",
      "alert2_sound_file_url": null
    },
    {
      "latitude": "31.6214",
      "longitude": "74.8793",
      "location_id": "212",
      "language_id": "1",
      "location_name": "Neelam",
      "alert1_distance": "",
      "alert1_sound_file_url": null,
      "alert2_distance": "",
      "alert2_sound_file_url": null
    },
    {
      "latitude": "31.284485459101173",
      "longitude": "75.5809701824254",
      "location_id": "211",
      "language_id": "1",
      "location_name": "Forst Event",
      "alert1_distance": null,
      "alert1_sound_file_url": null,
      "alert2_distance": null,
      "alert2_sound_file_url": null
    },
    {
      "latitude": "31.2976",
      "longitude": "75.5815",
      "location_id": "210",
      "language_id": "1",
      "location_name": "Saragarhi Gurudwara",
      "alert1_distance": "10000",
      "alert1_sound_file_url": null,
      "alert2_distance": "1000",
      "alert2_sound_file_url": null
    },
    {
      "latitude": "31.2976",
      "longitude": "75.5815",
      "location_id": "209",
      "language_id": "1",
      "location_name": "EWR",
      "alert1_distance": "10000",
      "alert1_sound_file_url": null,
      "alert2_distance": "1000",
      "alert2_sound_file_url": null
    },
    {
      "latitude": "31.6200",
      "longitude": "74.8765",
      "location_id": "208",
      "language_id": "1",
      "location_name": "Causeway",
      "alert1_distance": "",
      "alert1_sound_file_url": null,
      "alert2_distance": "",
      "alert2_sound_file_url": null
    },
    {
      "latitude": "31.6587",
      "longitude": "74.8790",
      "location_id": "207",
      "language_id": "1",
      "location_name": "Trillium mall",
      "alert1_distance": "",
      "alert1_sound_file_url": null,
      "alert2_distance": "",
      "alert2_sound_file_url": null
    },
    {
      "latitude": "31.6391",
      "longitude": "74.8906",
      "location_id": "206",
      "language_id": "1",
      "location_name": "Celebration mall",
      "alert1_distance": "",
      "alert1_sound_file_url": null,
      "alert2_distance": "",
      "alert2_sound_file_url": null
    },
    {
      "latitude": "31.6324",
      "longitude": "74.8690",
      "location_id": "205",
      "language_id": "1",
      "location_name": "Alpha Mall",
      "alert1_distance": "",
      "alert1_sound_file_url": null,
      "alert2_distance": "",
      "alert2_sound_file_url": null
    },
    {
      "latitude": "31.617895",
      "longitude": "74.8694058",
      "location_id": "204",
      "language_id": "1",
      "location_name": "Majeetha Mandi",
      "alert1_distance": "",
      "alert1_sound_file_url": null,
      "alert2_distance": "",
      "alert2_sound_file_url": null
    },
    {
      "latitude": "31.6238555",
      "longitude": "74.8705563",
      "location_id": "203",
      "language_id": "1",
      "location_name": "Shastri Market",
      "alert1_distance": "",
      "alert1_sound_file_url": null,
      "alert2_distance": "",
      "alert2_sound_file_url": null
    },
    {
      "latitude": "31.6181215",
      "longitude": "74.8708532",
      "location_id": "202",
      "language_id": "1",
      "location_name": "Lahori Gate Market",
      "alert1_distance": "",
      "alert1_sound_file_url": null,
      "alert2_distance": "",
      "alert2_sound_file_url": null
    },
    {
      "latitude": "31.6222",
      "longitude": "74.8708532",
      "location_id": "201",
      "language_id": "1",
      "location_name": "Katra Jaimal Singh",
      "alert1_distance": "",
      "alert1_sound_file_url": null,
      "alert2_distance": "",
      "alert2_sound_file_url": null
    },
    {
      "latitude": "31.6222",
      "longitude": "74.8708532",
      "location_id": "200",
      "language_id": "1",
      "location_name": "Guru Bazar",
      "alert1_distance": "",
      "alert1_sound_file_url": null,
      "alert2_distance": "",
      "alert2_sound_file_url": null
    },
    {
      "latitude": "31.6448616",
      "longitude": "74.8749595",
      "location_id": "199",
      "language_id": "1",
      "location_name": "Lawrence Road",
      "alert1_distance": "",
      "alert1_sound_file_url": null,
      "alert2_distance": "",
      "alert2_sound_file_url": null
    },
    {
      "latitude": "31.6223",
      "longitude": "74.8759373",
      "location_id": "198",
      "language_id": "1",
      "location_name": "Jalebi wala chownk",
      "alert1_distance": "",
      "alert1_sound_file_url": null,
      "alert2_distance": "",
      "alert2_sound_file_url": null
    },
    {
      "latitude": "31.6210945",
      "longitude": "74.8775208",
      "location_id": "197",
      "language_id": "1",
      "location_name": "Amar Jyoti",
      "alert1_distance": "",
      "alert1_sound_file_url": null,
      "alert2_distance": "",
      "alert2_sound_file_url": null
    },
    {
      "latitude": "31.6357845",
      "longitude": "74.8733576",
      "location_id": "196",
      "language_id": "1",
      "location_name": "Ram Bagh Gate",
      "alert1_distance": "",
      "alert1_sound_file_url": null,
      "alert2_distance": "",
      "alert2_sound_file_url": null
    },
    {
      "latitude": "31.620278",
      "longitude": "74.8735203",
      "location_id": "195",
      "language_id": "1",
      "location_name": "Lachi Ber Guruwara",
      "alert1_distance": "",
      "alert1_sound_file_url": null,
      "alert2_distance": "",
      "alert2_sound_file_url": null
    },
    {
      "latitude": "31.1700",
      "longitude": "75.2000",
      "location_id": "192",
      "language_id": "1",
      "location_name": "Harike Wetland And Bird sanctuary",
      "alert1_distance": "",
      "alert1_sound_file_url": null,
      "alert2_distance": "",
      "alert2_sound_file_url": null
    },
    {
      "latitude": "31.6340",
      "longitude": "74.8723",
      "location_id": "191",
      "language_id": "1",
      "location_name": "Qila jassa Singh Ahluwalia",
      "alert1_distance": "",
      "alert1_sound_file_url": null,
      "alert2_distance": "",
      "alert2_sound_file_url": null
    },
    {
      "latitude": "31.6258476",
      "longitude": "74.7744403",
      "location_id": "189",
      "language_id": "1",
      "location_name": "Punjab State War Memorial",
      "alert1_distance": "",
      "alert1_sound_file_url": null,
      "alert2_distance": "",
      "alert2_sound_file_url": null
    },
    {
      "latitude": "31.6211014",
      "longitude": "74.874613",
      "location_id": "188",
      "language_id": "1",
      "location_name": "Central Sikh Museum",
      "alert1_distance": "",
      "alert1_sound_file_url": null,
      "alert2_distance": "",
      "alert2_sound_file_url": null
    },
    {
      "latitude": "31.5721",
      "longitude": "75.0191",
      "location_id": "187",
      "language_id": "1",
      "location_name": "Zimidara Haveli",
      "alert1_distance": "",
      "alert1_sound_file_url": null,
      "alert2_distance": "",
      "alert2_sound_file_url": null
    },
    {
      "latitude": "31.6200",
      "longitude": "74.8765",
      "location_id": "185",
      "language_id": "1",
      "location_name": "Sikh Ajaib Ghar",
      "alert1_distance": "",
      "alert1_sound_file_url": null,
      "alert2_distance": "",
      "alert2_sound_file_url": null
    },
    {
      "latitude": "31.6200",
      "longitude": "74.8765",
      "location_id": "183",
      "language_id": "1",
      "location_name": "Multimedia Talking museum",
      "alert1_distance": "",
      "alert1_sound_file_url": null,
      "alert2_distance": "",
      "alert2_sound_file_url": null
    },
    {
      "latitude": "31.6258476",
      "longitude": "74.7744403",
      "location_id": "182",
      "language_id": "1",
      "location_name": "Bhai bala memorial",
      "alert1_distance": "",
      "alert1_sound_file_url": null,
      "alert2_distance": "",
      "alert2_sound_file_url": null
    },
    {
      "latitude": "31.6206",
      "longitude": "74.8801",
      "location_id": "178",
      "language_id": "1",
      "location_name": "Shaheed Udham Singh Statue",
      "alert1_distance": "",
      "alert1_sound_file_url": null,
      "alert2_distance": "",
      "alert2_sound_file_url": null
    },
    {
      "latitude": "31.6206",
      "longitude": "74.8801",
      "location_id": "177",
      "language_id": "1",
      "location_name": "Museum in Jallianwala bagh",
      "alert1_distance": "",
      "alert1_sound_file_url": null,
      "alert2_distance": "",
      "alert2_sound_file_url": null
    },
    {
      "latitude": "31.6206",
      "longitude": "74.8801",
      "location_id": "176",
      "language_id": "1",
      "location_name": "Khooni khooh",
      "alert1_distance": "",
      "alert1_sound_file_url": null,
      "alert2_distance": "",
      "alert2_sound_file_url": null
    },
    {
      "latitude": "31.6340",
      "longitude": "74.8723",
      "location_id": "175",
      "language_id": "1",
      "location_name": "Pul Kanjari",
      "alert1_distance": "",
      "alert1_sound_file_url": null,
      "alert2_distance": "",
      "alert2_sound_file_url": null
    },
    {
      "latitude": "31.6259",
      "longitude": "74.8672",
      "location_id": "174",
      "language_id": "1",
      "location_name": "Andh Vidyalya",
      "alert1_distance": "",
      "alert1_sound_file_url": null,
      "alert2_distance": "",
      "alert2_sound_file_url": null
    },
    {
      "latitude": "31.6440",
      "longitude": "74.8132",
      "location_id": "173",
      "language_id": "1",
      "location_name": "Sada Pind",
      "alert1_distance": "",
      "alert1_sound_file_url": null,
      "alert2_distance": "",
      "alert2_sound_file_url": null
    },
    {
      "latitude": "31.6340",
      "longitude": "74.8723",
      "location_id": "172",
      "language_id": "1",
      "location_name": "Pingalwara",
      "alert1_distance": "",
      "alert1_sound_file_url": null,
      "alert2_distance": "",
      "alert2_sound_file_url": null
    },
    {
      "latitude": "31.6320",
      "longitude": "74.8376",
      "location_id": "171",
      "language_id": "1",
      "location_name": "Punjab Naatshala",
      "alert1_distance": "",
      "alert1_sound_file_url": null,
      "alert2_distance": "",
      "alert2_sound_file_url": null
    },
    {
      "latitude": "31.6258",
      "longitude": "74.8778",
      "location_id": "158",
      "language_id": "1",
      "location_name": "Shivala Veer bhan",
      "alert1_distance": "",
      "alert1_sound_file_url": null,
      "alert2_distance": "",
      "alert2_sound_file_url": null
    },
    {
      "latitude": "31.6258",
      "longitude": "74.8778",
      "location_id": "157",
      "language_id": "1",
      "location_name": "Taksal",
      "alert1_distance": "",
      "alert1_sound_file_url": null,
      "alert2_distance": "",
      "alert2_sound_file_url": null
    },
    {
      "latitude": "31.6328269",
      "longitude": "74.8552243",
      "location_id": "156",
      "language_id": "1",
      "location_name": "Thakurdwara Dariana Mal",
      "alert1_distance": "",
      "alert1_sound_file_url": null,
      "alert2_distance": "",
      "alert2_sound_file_url": null
    },
    {
      "latitude": "31.6218",
      "longitude": "74.8742",
      "location_id": "155",
      "language_id": "1",
      "location_name": "Baba Bohar",
      "alert1_distance": "",
      "alert1_sound_file_url": null,
      "alert2_distance": "",
      "alert2_sound_file_url": null
    },
    {
      "latitude": "31.6258",
      "longitude": "74.8778",
      "location_id": "154",
      "language_id": "1",
      "location_name": "Chitta akhara",
      "alert1_distance": "",
      "alert1_sound_file_url": null,
      "alert2_distance": "",
      "alert2_sound_file_url": null
    },
    {
      "latitude": "31.6258",
      "longitude": "74.8778",
      "location_id": "153",
      "language_id": "1",
      "location_name": "Udasin Ashram Akhara Sangwala",
      "alert1_distance": "",
      "alert1_sound_file_url": null,
      "alert2_distance": "",
      "alert2_sound_file_url": null
    },
    {
      "latitude": "31.6258",
      "longitude": "74.8778",
      "location_id": "152",
      "language_id": "1",
      "location_name": "Haritage walk",
      "alert1_distance": "",
      "alert1_sound_file_url": null,
      "alert2_distance": "",
      "alert2_sound_file_url": null
    },
    {
      "latitude": "31.6312",
      "longitude": "74.8744",
      "location_id": "151",
      "language_id": "1",
      "location_name": "Barah Gate",
      "alert1_distance": "",
      "alert1_sound_file_url": null,
      "alert2_distance": "",
      "alert2_sound_file_url": null
    },
    {
      "latitude": "31.5108",
      "longitude": "74.6935",
      "location_id": "150",
      "language_id": "1",
      "location_name": "Sarai Amanat Khan",
      "alert1_distance": "",
      "alert1_sound_file_url": null,
      "alert2_distance": "",
      "alert2_sound_file_url": null
    },
    {
      "latitude": "31.2172",
      "longitude": "75.1854",
      "location_id": "149",
      "language_id": "1",
      "location_name": "Shri Ber Sahib Gurudwara",
      "alert1_distance": "",
      "alert1_sound_file_url": null,
      "alert2_distance": "",
      "alert2_sound_file_url": null
    },
    {
      "latitude": "31.4236",
      "longitude": "75.0991",
      "location_id": "148",
      "language_id": "1",
      "location_name": "Khadoor Sahib Gurudwara",
      "alert1_distance": "",
      "alert1_sound_file_url": null,
      "alert2_distance": "",
      "alert2_sound_file_url": null
    },
    {
      "latitude": "31.3642",
      "longitude": "75.1447",
      "location_id": "147",
      "language_id": "1",
      "location_name": "Gobindwal Sahib Gurudwara",
      "alert1_distance": "",
      "alert1_sound_file_url": null,
      "alert2_distance": "",
      "alert2_sound_file_url": null
    },
    {
      "latitude": "32.0322",
      "longitude": "75.0304",
      "location_id": "146",
      "language_id": "1",
      "location_name": "Dera Baba Nanak",
      "alert1_distance": "",
      "alert1_sound_file_url": null,
      "alert2_distance": "",
      "alert2_sound_file_url": null
    },
    {
      "latitude": "31.4539",
      "longitude": "74.9268",
      "location_id": "145",
      "language_id": "1",
      "location_name": "Gurudwara TaranTaran sahib",
      "alert1_distance": "",
      "alert1_sound_file_url": null,
      "alert2_distance": "",
      "alert2_sound_file_url": null
    },
    {
      "latitude": "31.2127",
      "longitude": "75.1908",
      "location_id": "144",
      "language_id": "1",
      "location_name": "Hatt Sahib Gurudwara",
      "alert1_distance": "",
      "alert1_sound_file_url": null,
      "alert2_distance": "",
      "alert2_sound_file_url": null
    },
    {
      "latitude": "31.1960",
      "longitude": "74.9531",
      "location_id": "143",
      "language_id": "1",
      "location_name": "Kali Bein",
      "alert1_distance": "",
      "alert1_sound_file_url": null,
      "alert2_distance": "",
      "alert2_sound_file_url": null
    },
    {
      "latitude": "31.4305",
      "longitude": "75.1065",
      "location_id": "142",
      "language_id": "1",
      "location_name": "Bibi Amro khoo",
      "alert1_distance": "",
      "alert1_sound_file_url": null,
      "alert2_distance": "",
      "alert2_sound_file_url": null
    },
    {
      "latitude": "31.4242",
      "longitude": "75.0981",
      "location_id": "141",
      "language_id": "1",
      "location_name": "Mai Bharai Sahib Gurudwara",
      "alert1_distance": "",
      "alert1_sound_file_url": null,
      "alert2_distance": "",
      "alert2_sound_file_url": null
    },
    {
      "latitude": "31.4465",
      "longitude": "74.9249",
      "location_id": "140",
      "language_id": "1",
      "location_name": "Guru ka Khooh",
      "alert1_distance": "",
      "alert1_sound_file_url": null,
      "alert2_distance": "",
      "alert2_sound_file_url": null
    },
    {
      "latitude": "32.0606841",
      "longitude": "74.9858792",
      "location_id": "139",
      "language_id": "1",
      "location_name": "Kartarpur Corridor",
      "alert1_distance": "",
      "alert1_sound_file_url": null,
      "alert2_distance": "",
      "alert2_sound_file_url": null
    },
    {
      "latitude": "31.6926",
      "longitude": "75.3762",
      "location_id": "138",
      "language_id": "1",
      "location_name": "Tapiana Gurudwara",
      "alert1_distance": "",
      "alert1_sound_file_url": null,
      "alert2_distance": "",
      "alert2_sound_file_url": null
    },
    {
      "latitude": "31.3660",
      "longitude": "75.1449",
      "location_id": "137",
      "language_id": "1",
      "location_name": "Sri Chaubara Sahib Gurdwara",
      "alert1_distance": "",
      "alert1_sound_file_url": null,
      "alert2_distance": "",
      "alert2_sound_file_url": null
    },
    {
      "latitude": "31.4266",
      "longitude": "75.09619",
      "location_id": "136",
      "language_id": "1",
      "location_name": "Mal Akhada Sahib Gurudwara",
      "alert1_distance": "",
      "alert1_sound_file_url": null,
      "alert2_distance": "",
      "alert2_sound_file_url": null
    },
    {
      "latitude": "31.6769",
      "longitude": "74.75275",
      "location_id": "135",
      "language_id": "1",
      "location_name": "Mata lal Devi Temple",
      "alert1_distance": "",
      "alert1_sound_file_url": null,
      "alert2_distance": "",
      "alert2_sound_file_url": null
    },
    {
      "latitude": "31.6769",
      "longitude": "74.7527",
      "location_id": "134",
      "language_id": "1",
      "location_name": "Bhagwan Valmiki Tirath sthal",
      "alert1_distance": "",
      "alert1_sound_file_url": null,
      "alert2_distance": "",
      "alert2_sound_file_url": null
    },
    {
      "latitude": "31.6272",
      "longitude": "74.8674",
      "location_id": "133",
      "language_id": "1",
      "location_name": "Shivala Bagh Bhaiyan Mandir",
      "alert1_distance": "",
      "alert1_sound_file_url": null,
      "alert2_distance": "",
      "alert2_sound_file_url": null
    },
    {
      "latitude": "31.6272",
      "longitude": "74.8674",
      "location_id": "132",
      "language_id": "1",
      "location_name": "Shri sheetla Mata Mandir",
      "alert1_distance": "",
      "alert1_sound_file_url": null,
      "alert2_distance": "",
      "alert2_sound_file_url": null
    },
    {
      "latitude": "31.6272",
      "longitude": "74.8674",
      "location_id": "131",
      "language_id": "1",
      "location_name": "Prachin shani Dev Mandir",
      "alert1_distance": "",
      "alert1_sound_file_url": null,
      "alert2_distance": "",
      "alert2_sound_file_url": null
    },
    {
      "latitude": "31.6272",
      "longitude": "74.8674",
      "location_id": "130",
      "language_id": "1",
      "location_name": "Shri Bada Hanuman Mandir",
      "alert1_distance": "",
      "alert1_sound_file_url": null,
      "alert2_distance": "",
      "alert2_sound_file_url": null
    },
    {
      "latitude": "31.6154",
      "longitude": "74.8764",
      "location_id": "129",
      "language_id": "1",
      "location_name": "Iskcon temple",
      "alert1_distance": "",
      "alert1_sound_file_url": null,
      "alert2_distance": "",
      "alert2_sound_file_url": null
    },
    {
      "latitude": "31.6316",
      "longitude": "74.8474",
      "location_id": "128",
      "language_id": "1",
      "location_name": "Pipli sahib Gurudwara",
      "alert1_distance": "",
      "alert1_sound_file_url": null,
      "alert2_distance": "",
      "alert2_sound_file_url": null
    },
    {
      "latitude": "31.6250",
      "longitude": "74.8767",
      "location_id": "127",
      "language_id": "1",
      "location_name": "Santokhsar Sahib Gurudwara",
      "alert1_distance": "",
      "alert1_sound_file_url": null,
      "alert2_distance": "",
      "alert2_sound_file_url": null
    },
    {
      "latitude": "31.6239",
      "longitude": "74.8722",
      "location_id": "126",
      "language_id": "1",
      "location_name": "Bhai Shalo Gurudwara",
      "alert1_distance": "",
      "alert1_sound_file_url": null,
      "alert2_distance": "",
      "alert2_sound_file_url": null
    },
    {
      "latitude": "31.6128",
      "longitude": "74.7988",
      "location_id": "125",
      "language_id": "1",
      "location_name": "Guru Ki Wadali Gurudwara",
      "alert1_distance": "",
      "alert1_sound_file_url": null,
      "alert2_distance": "",
      "alert2_sound_file_url": null
    },
    {
      "latitude": "31.6139",
      "longitude": "74.8809",
      "location_id": "124",
      "language_id": "1",
      "location_name": "Ramsar Sahib Gurudwara",
      "alert1_distance": "",
      "alert1_sound_file_url": null,
      "alert2_distance": "",
      "alert2_sound_file_url": null
    },
    {
      "latitude": "31.2271",
      "longitude": "76.4944",
      "location_id": "123",
      "language_id": "1",
      "location_name": "Kila Lohgarh Sahib Gurudwara",
      "alert1_distance": "",
      "alert1_sound_file_url": null,
      "alert2_distance": "",
      "alert2_sound_file_url": null
    },
    {
      "latitude": "31.61722",
      "longitude": "74.87722",
      "location_id": "122",
      "language_id": "1",
      "location_name": "Atal Sahib Ji Gurudwara",
      "alert1_distance": "",
      "alert1_sound_file_url": null,
      "alert2_distance": "",
      "alert2_sound_file_url": null
    },
    {
      "latitude": "31.6200",
      "longitude": "74.8765",
      "location_id": "121",
      "language_id": "1",
      "location_name": "Clock Tower",
      "alert1_distance": "",
      "alert1_sound_file_url": null,
      "alert2_distance": "",
      "alert2_sound_file_url": null
    },
    {
      "latitude": "31.6200",
      "longitude": "74.8765",
      "location_id": "120",
      "language_id": "1",
      "location_name": "Aurangzeb takht",
      "alert1_distance": "",
      "alert1_sound_file_url": null,
      "alert2_distance": "",
      "alert2_sound_file_url": null
    },
    {
      "latitude": "31.6200",
      "longitude": "74.8765",
      "location_id": "119",
      "language_id": "1",
      "location_name": "Har Ki Pauri",
      "alert1_distance": "",
      "alert1_sound_file_url": null,
      "alert2_distance": "",
      "alert2_sound_file_url": null
    },
    {
      "latitude": "31.6200",
      "longitude": "74.8765",
      "location_id": "118",
      "language_id": "1",
      "location_name": "Ber Baba Budha Ji",
      "alert1_distance": "",
      "alert1_sound_file_url": null,
      "alert2_distance": "",
      "alert2_sound_file_url": null
    },
    {
      "latitude": "31.6200",
      "longitude": "74.8765",
      "location_id": "117",
      "language_id": "1",
      "location_name": "Athsath Tirath",
      "alert1_distance": "",
      "alert1_sound_file_url": null,
      "alert2_distance": "",
      "alert2_sound_file_url": null
    },
    {
      "latitude": "31.6200",
      "longitude": "74.8765",
      "location_id": "116",
      "language_id": "1",
      "location_name": "Baba Deep Singh Ji Shrine",
      "alert1_distance": "",
      "alert1_sound_file_url": null,
      "alert2_distance": "",
      "alert2_sound_file_url": null
    },
    {
      "latitude": "31.6200",
      "longitude": "74.8765",
      "location_id": "115",
      "language_id": "1",
      "location_name": "Parikrama",
      "alert1_distance": "",
      "alert1_sound_file_url": null,
      "alert2_distance": "",
      "alert2_sound_file_url": null
    },
    {
      "latitude": "31.6200",
      "longitude": "74.8765",
      "location_id": "113",
      "language_id": "1",
      "location_name": "Darshani Deori",
      "alert1_distance": "",
      "alert1_sound_file_url": null,
      "alert2_distance": "",
      "alert2_sound_file_url": null
    },
    {
      "latitude": "31.6200",
      "longitude": "74.8765",
      "location_id": "112",
      "language_id": "1",
      "location_name": "Tharra Sahib-9th Guru",
      "alert1_distance": "",
      "alert1_sound_file_url": null,
      "alert2_distance": "",
      "alert2_sound_file_url": null
    },
    {
      "latitude": "31.6200",
      "longitude": "74.8765",
      "location_id": "111",
      "language_id": "1",
      "location_name": "Nishan Sahib-Miri Piri",
      "alert1_distance": "",
      "alert1_sound_file_url": null,
      "alert2_distance": "",
      "alert2_sound_file_url": null
    },
    {
      "latitude": "31.6200",
      "longitude": "74.8765",
      "location_id": "110",
      "language_id": "1",
      "location_name": "Guru Ka langar",
      "alert1_distance": "",
      "alert1_sound_file_url": null,
      "alert2_distance": "",
      "alert2_sound_file_url": null
    },
    {
      "latitude": "31.6200",
      "longitude": "74.8765",
      "location_id": "109",
      "language_id": "1",
      "location_name": "Manji Sahib Diwan Hall",
      "alert1_distance": "1000",
      "alert1_sound_file_url": null,
      "alert2_distance": "800",
      "alert2_sound_file_url": null
    },
    {
      "latitude": "31.6200",
      "longitude": "74.8765",
      "location_id": "105",
      "language_id": "1",
      "location_name": "Amrit Sarovar",
      "alert1_distance": "",
      "alert1_sound_file_url": null,
      "alert2_distance": "",
      "alert2_sound_file_url": null
    },
    {
      "latitude": "31.6340",
      "longitude": "74.8723",
      "location_id": "98",
      "language_id": "1",
      "location_name": "Amritsar City",
      "alert1_distance": "1000",
      "alert1_sound_file_url": null,
      "alert2_distance": "800",
      "alert2_sound_file_url": null
    },
    {
      "latitude": "31.3184",
      "longitude": "75.5719",
      "location_id": "93",
      "language_id": "1",
      "location_name": "Nakodar Chowk",
      "alert1_distance": "500",
      "alert1_sound_file_url": "https://dreambsys.in/codeigniter/hriday/assets/static/locations/soundfiles/soundfile2.mp3",
      "alert2_distance": "200",
      "alert2_sound_file_url": "https://dreambsys.in/codeigniter/hriday/assets/static/locations/soundfiles/soundfile1.mp3"
    },
    {
      "latitude": "30.7189156",
      "longitude": "76.7112841",
      "location_id": "92",
      "language_id": "1",
      "location_name": "Reliance Mall",
      "alert1_distance": "500",
      "alert1_sound_file_url": "https://dreambsys.in/codeigniter/hriday/assets/static/locations/soundfiles/soundfile1.mp3",
      "alert2_distance": "200",
      "alert2_sound_file_url": "https://dreambsys.in/codeigniter/hriday/assets/static/locations/soundfiles/soundfile2.mp3"
    },
    {
      "latitude": "31.68742",
      "longitude": "76.116915",
      "location_id": "91",
      "language_id": "1",
      "location_name": "BMC Chowk",
      "alert1_distance": "800",
      "alert1_sound_file_url": "https://dreambsys.in/codeigniter/hriday/assets/static/locations/soundfiles/soundfile2.mp3",
      "alert2_distance": "500",
      "alert2_sound_file_url": "https://dreambsys.in/codeigniter/hriday/assets/static/locations/soundfiles/soundfile3.mp3"
    },
    {
      "latitude": "31.6887049",
      "longitude": "76.1155076",
      "location_id": "90",
      "language_id": "1",
      "location_name": "Curo Mall",
      "alert1_distance": "800",
      "alert1_sound_file_url": "https://dreambsys.in/codeigniter/hriday/assets/static/locations/soundfiles/soundfile2.mp3",
      "alert2_distance": "500",
      "alert2_sound_file_url": "https://dreambsys.in/codeigniter/hriday/assets/static/locations/soundfiles/soundfile1.mp3"
    },
    {
      "latitude": "31.676700913792946",
      "longitude": "74.8814519964961",
      "location_id": "52",
      "language_id": "1",
      "location_name": "Police Station - Sadar",
      "alert1_distance": "",
      "alert1_sound_file_url": null,
      "alert2_distance": "",
      "alert2_sound_file_url": null
    },
    {
      "latitude": "31.6429727",
      "longitude": "74.8632845",
      "location_id": "51",
      "language_id": "1",
      "location_name": "Randhawa Hospital",
      "alert1_distance": "",
      "alert1_sound_file_url": null,
      "alert2_distance": "",
      "alert2_sound_file_url": null
    },
    {
      "latitude": "31.627929188241453",
      "longitude": "74.87283875548096",
      "location_id": "50",
      "language_id": "1",
      "location_name": "Police Station B- Division",
      "alert1_distance": "",
      "alert1_sound_file_url": null,
      "alert2_distance": "",
      "alert2_sound_file_url": null
    },
    {
      "latitude": "31.631110250465813",
      "longitude": "74.87588574492187",
      "location_id": "47",
      "language_id": "1",
      "location_name": "Chaali khooh",
      "alert1_distance": "1000",
      "alert1_sound_file_url": null,
      "alert2_distance": "500",
      "alert2_sound_file_url": null
    },
    {
      "latitude": "31.64048",
      "longitude": "74.879378",
      "location_id": "46",
      "language_id": "1",
      "location_name": "Ram Bagh Garden",
      "alert1_distance": "1000",
      "alert1_sound_file_url": null,
      "alert2_distance": "500",
      "alert2_sound_file_url": null
    },
    {
      "latitude": "31.606552170824028",
      "longitude": "74.86315655546267",
      "location_id": "45",
      "language_id": "1",
      "location_name": "KHALSA COLLEGE",
      "alert1_distance": "1000",
      "alert1_sound_file_url": null,
      "alert2_distance": "500",
      "alert2_sound_file_url": null
    },
    {
      "latitude": "31.625905886872008",
      "longitude": "74.87869262695312",
      "location_id": "44",
      "language_id": "1",
      "location_name": "Jang-e-azadi Museum",
      "alert1_distance": "1000",
      "alert1_sound_file_url": null,
      "alert2_distance": "500",
      "alert2_sound_file_url": null
    },
    {
      "latitude": "31.6200",
      "longitude": "74.8765",
      "location_id": "43",
      "language_id": "1",
      "location_name": "Golden Temple",
      "alert1_distance": "",
      "alert1_sound_file_url": null,
      "alert2_distance": "",
      "alert2_sound_file_url": null
    },
    {
      "latitude": "31.64731702462741",
      "longitude": "74.85487461090088",
      "location_id": "42",
      "language_id": "1",
      "location_name": "Police Station Cantonment Amritsar City",
      "alert1_distance": "",
      "alert1_sound_file_url": null,
      "alert2_distance": "",
      "alert2_sound_file_url": null
    },
    {
      "latitude": "31.63564109258084",
      "longitude": "74.80009724699707",
      "location_id": "41",
      "language_id": "1",
      "location_name": "Fortis Escorts Hospital",
      "alert1_distance": "",
      "alert1_sound_file_url": null,
      "alert2_distance": "",
      "alert2_sound_file_url": null
    },
    {
      "latitude": "31.619985897223643",
      "longitude": "74.87646102905273",
      "location_id": "40",
      "language_id": "3",
      "location_name": "श्री हरमंदिर साहिब",
      "alert1_distance": "",
      "alert1_sound_file_url": null,
      "alert2_distance": "",
      "alert2_sound_file_url": null
    },
    {
      "latitude": "31.6200",
      "longitude": "74.8765",
      "location_id": "39",
      "language_id": "1",
      "location_name": "Ramgarhia Bunga",
      "alert1_distance": "",
      "alert1_sound_file_url": null,
      "alert2_distance": "",
      "alert2_sound_file_url": null
    },
    {
      "latitude": "31.2976",
      "longitude": "75.5815",
      "location_id": "28",
      "language_id": "1",
      "location_name": "Bir Baba Budha Sahib Gurudwara",
      "alert1_distance": "10000",
      "alert1_sound_file_url": null,
      "alert2_distance": "1000",
      "alert2_sound_file_url": null
    },
    {
      "latitude": "31.6275",
      "longitude": "74.7926",
      "location_id": "25",
      "language_id": "1",
      "location_name": "Chheharta Sahib Gurudwara",
      "alert1_distance": "",
      "alert1_sound_file_url": null,
      "alert2_distance": "",
      "alert2_sound_file_url": null
    },
    {
      "latitude": "31.3642",
      "longitude": "75.1447",
      "location_id": "24",
      "language_id": "1",
      "location_name": "Bauli Sahib Gurudwara",
      "alert1_distance": "",
      "alert1_sound_file_url": null,
      "alert2_distance": "",
      "alert2_sound_file_url": null
    },
    {
      "latitude": "31.6206",
      "longitude": "74.8754",
      "location_id": "23",
      "language_id": "1",
      "location_name": "Akal Takht",
      "alert1_distance": "500",
      "alert1_sound_file_url": "https://dreambsys.in/codeigniter/hriday/assets/static/locations/soundfiles/soundfile3.mp3",
      "alert2_distance": "200",
      "alert2_sound_file_url": "https://dreambsys.in/codeigniter/hriday/assets/static/locations/soundfiles/soundfile2.mp3"
    },
    {
      "latitude": "31.6296",
      "longitude": "74.8752",
      "location_id": "22",
      "language_id": "1",
      "location_name": "Khair-ud-Din Masjid",
      "alert1_distance": "",
      "alert1_sound_file_url": null,
      "alert2_distance": "",
      "alert2_sound_file_url": null
    },
    {
      "latitude": "31.6257",
      "longitude": "74.8790",
      "location_id": "21",
      "language_id": "1",
      "location_name": "Partition Museum",
      "alert1_distance": "500",
      "alert1_sound_file_url": "https://dreambsys.in/codeigniter/hriday/assets/static/locations/soundfiles/soundfile3.mp3",
      "alert2_distance": "200",
      "alert2_sound_file_url": "https://dreambsys.in/codeigniter/hriday/assets/static/locations/soundfiles/soundfile1.mp3"
    },
    {
      "latitude": "31.6152",
      "longitude": "74.8810",
      "location_id": "20",
      "language_id": "1",
      "location_name": "Bibeksar Sahib Gurudwara",
      "alert1_distance": "500",
      "alert1_sound_file_url": "https://dreambsys.in/codeigniter/hriday/assets/static/locations/soundfiles/soundfile2.mp3",
      "alert2_distance": "",
      "alert2_sound_file_url": null
    },
    {
      "latitude": "31.6272",
      "longitude": "74.8674",
      "location_id": "19",
      "language_id": "1",
      "location_name": "Durgiana Temple",
      "alert1_distance": "",
      "alert1_sound_file_url": null,
      "alert2_distance": "",
      "alert2_sound_file_url": null
    },
    {
      "latitude": "31.6384",
      "longitude": "74.8785",
      "location_id": "16",
      "language_id": "1",
      "location_name": "Company Bagh",
      "alert1_distance": "",
      "alert1_sound_file_url": null,
      "alert2_distance": "",
      "alert2_sound_file_url": null
    },
    {
      "latitude": "31.6293",
      "longitude": "74.8778",
      "location_id": "15",
      "language_id": "1",
      "location_name": "Hall Bazar",
      "alert1_distance": "",
      "alert1_sound_file_url": null,
      "alert2_distance": "",
      "alert2_sound_file_url": null
    },
    {
      "latitude": "30.2085",
      "longitude": "74.9381",
      "location_id": "14",
      "language_id": "1",
      "location_name": "Gobindgarh Fort",
      "alert1_distance": "",
      "alert1_sound_file_url": null,
      "alert2_distance": "",
      "alert2_sound_file_url": null
    },
    {
      "latitude": "31.6379495",
      "longitude": "74.8786727",
      "location_id": "13",
      "language_id": "1",
      "location_name": "Maharaja Ranjit Singh Museum",
      "alert1_distance": "",
      "alert1_sound_file_url": null,
      "alert2_distance": "",
      "alert2_sound_file_url": null
    },
    {
      "latitude": "74.8801",
      "longitude": "31.6206",
      "location_id": "12",
      "language_id": "1",
      "location_name": "Jallianwala Bagh",
      "alert1_distance": "",
      "alert1_sound_file_url": null,
      "alert2_distance": "",
      "alert2_sound_file_url": null
    },
    {
      "latitude": "31.3208477",
      "longitude": "75.5771334",
      "location_id": "11",
      "language_id": "1",
      "location_name": "Attari Wagah Border",
      "alert1_distance": "",
      "alert1_sound_file_url": null,
      "alert2_distance": "",
      "alert2_sound_file_url": null
    },
    {
      "latitude": "31.619653",
      "longitude": "74.877331",
      "location_id": "10",
      "language_id": "1",
      "location_name": "Dukh Bhanjani Ber Tree",
      "alert1_distance": "500",
      "alert1_sound_file_url": "https://dreambsys.in/codeigniter/hriday/assets/static/locations/soundfiles/soundfile1.mp3",
      "alert2_distance": "200",
      "alert2_sound_file_url": "https://dreambsys.in/codeigniter/hriday/assets/static/locations/soundfiles/soundfile2.mp3"
    },
    {
      "latitude": "31.6228",
      "longitude": "74.8733",
      "location_id": "9",
      "language_id": "1",
      "location_name": "Guru Ke Mehal",
      "alert1_distance": "500",
      "alert1_sound_file_url": "https://dreambsys.in/codeigniter/hriday/assets/static/locations/soundfiles/soundfile2.mp3",
      "alert2_distance": "200",
      "alert2_sound_file_url": "https://dreambsys.in/codeigniter/hriday/assets/static/locations/soundfiles/soundfile1.mp3"
    },
    {
      "latitude": "31.2984437",
      "longitude": "75.5858772",
      "location_id": "8",
      "language_id": "1",
      "location_name": "Durgiana Temple",
      "alert1_distance": "",
      "alert1_sound_file_url": null,
      "alert2_distance": "",
      "alert2_sound_file_url": null
    },
    {
      "latitude": "31.6183",
      "longitude": "74.8760",
      "location_id": "7",
      "language_id": "1",
      "location_name": "Mata Kaulan Ji Gurudwara",
      "alert1_distance": "",
      "alert1_sound_file_url": null,
      "alert2_distance": "",
      "alert2_sound_file_url": null
    },
    {
      "latitude": "31.2984437",
      "longitude": "75.5858772",
      "location_id": "1",
      "language_id": "1",
      "location_name": "Kulcha land",
      "alert1_distance": "",
      "alert1_sound_file_url": null,
      "alert2_distance": "",
      "alert2_sound_file_url": null
    }
  ],
  "count": 167
}